City_ID,City,Lat,Lng,Max Temp,Humidity,Cloudiness,Wind Speed,Country,Date
0,udachny,66.4167,112.4,47.03,53.0,53.0,36.0,RU,1718657977.0
1,ukiah,39.1502,-123.2078,83.16,19.0,19.0,0.0,US,1718657917.0
2,adamstown,-25.066,-130.1015,72.12,81.0,81.0,99.0,PN,1718658034.0
3,ola,59.5833,151.2833,48.99,76.0,76.0,100.0,RU,1718658036.0
4,ribeira grande,38.5167,-28.7,70.2,64.0,64.0,40.0,PT,1718658037.0
5,kailua-kona,19.6406,-155.9956,83.28,76.0,76.0,75.0,US,1718657949.0
6,edinburgh of the seven seas,-37.0676,-12.3116,55.06,66.0,66.0,100.0,SH,1718658039.0
7,starkville,33.4504,-88.8184,90.84,66.0,66.0,20.0,US,1718658040.0
8,selfoss,63.9331,-20.9971,49.05,82.0,82.0,98.0,IS,1718657830.0
9,bethel,41.3712,-73.414,86.65,61.0,61.0,81.0,US,1718658042.0
10,polyarnyy,69.1989,33.4478,58.35,80.0,80.0,98.0,RU,1718658043.0
11,tacna,-18.0056,-70.2483,62.8,63.0,63.0,40.0,PE,1718657786.0
12,waitangi,-43.9535,-176.5597,50.83,97.0,97.0,95.0,NZ,1718658046.0
13,bredasdorp,-34.5322,20.0403,55.92,77.0,77.0,6.0,ZA,1718658047.0
14,coronel dorrego,-38.7187,-61.2873,57.67,46.0,46.0,72.0,AR,1718658048.0
15,grytviken,-54.2811,-36.5092,26.37,85.0,85.0,29.0,GS,1718658049.0
16,moss vale,-34.55,150.3833,43.34,87.0,87.0,8.0,AU,1718658050.0
17,kayangel,8.0823,134.7173,80.64,80.0,80.0,97.0,PW,1718658051.0
18,iqaluit,63.7506,-68.5145,42.53,60.0,60.0,75.0,CA,1718658015.0
19,tocopilla,-22.092,-70.1979,65.35,78.0,78.0,14.0,CL,1718658054.0
20,stanley,54.868,-1.6985,55.71,89.0,89.0,40.0,GB,1718657977.0
21,burela de cabo,43.65,-7.4,63.03,95.0,95.0,100.0,ES,1718658056.0
22,itoman,26.1247,127.6694,80.98,100.0,100.0,75.0,JP,1718658057.0
23,trinidad,-14.8333,-64.9,91.38,52.0,52.0,20.0,BO,1718658058.0
24,kelaat mgouna,,,,,,,,
25,taiohae,,,,,,,,
26,avarua,-21.2078,-159.775,78.85,65.0,65.0,75.0,CK,1718658061.0
27,island harbour,50.724,-1.2758,61.3,77.0,77.0,100.0,GB,1718658063.0
28,hammerfest,70.6634,23.6821,64.85,63.0,63.0,0.0,NO,1718658064.0
29,port-aux-francais,-49.35,70.2167,37.63,63.0,63.0,19.0,TF,1718658065.0
30,mokopane,-24.1944,29.0097,52.32,44.0,44.0,0.0,ZA,1718658066.0
31,albany,42.6001,-73.9662,89.69,56.0,56.0,18.0,US,1718657950.0
32,radhanpur,23.8333,71.6,89.94,57.0,57.0,1.0,IN,1718658068.0
33,afaahiti,-17.75,-149.2833,80.47,82.0,82.0,24.0,PF,1718658070.0
34,sainghin-en-weppes,50.5641,2.898,64.89,64.0,64.0,0.0,FR,1718658071.0
35,puerto natales,-51.7236,-72.4875,28.85,74.0,74.0,75.0,CL,1718658072.0
36,margaret river,-33.95,115.0667,59.76,71.0,71.0,55.0,AU,1718658073.0
37,tazacorte,28.629,-17.9293,70.77,89.0,89.0,100.0,ES,1718658074.0
38,tadine,-21.55,167.8833,73.09,71.0,71.0,1.0,NC,1718658075.0
39,'ohonua,,,,,,,,
40,tolanaro,-25.0319,46.9987,68.07,77.0,77.0,40.0,MG,1718658078.0
41,bamboo flat,11.7,92.7167,82.49,89.0,89.0,20.0,IN,1718658079.0
42,tura,25.5198,90.2201,75.25,99.0,99.0,100.0,IN,1718658080.0
43,nova vicosa,-17.8919,-39.3719,74.07,82.0,82.0,0.0,BR,1718658082.0
44,yellowknife,62.456,-114.3525,57.42,47.0,47.0,75.0,CA,1718658083.0
45,nar'yan-mar,67.6713,53.087,38.46,66.0,66.0,7.0,RU,1718658084.0
46,kurchatov,51.6601,35.6521,66.61,96.0,96.0,28.0,RU,1718658085.0
47,al jubayl,27.0112,49.6583,92.84,37.0,37.0,0.0,SA,1718658016.0
48,badger,64.8,-147.5333,79.36,32.0,32.0,20.0,US,1718658087.0
49,dolinsk,47.35,142.8,56.19,97.0,97.0,100.0,RU,1718658088.0
50,atafu village,-8.5421,-172.5159,84.65,75.0,75.0,6.0,TK,1718658089.0
51,az zuwaytinah,30.9522,20.1202,79.9,52.0,52.0,3.0,LY,1718658091.0
52,bilibino,68.0546,166.4372,67.96,37.0,37.0,63.0,RU,1718658092.0
53,kapa'a,22.0752,-159.319,81.19,73.0,73.0,82.0,US,1718658093.0
54,mugia,43.1041,-9.2179,63.16,95.0,95.0,71.0,ES,1718658094.0
55,ujae,8.9322,165.7642,83.57,78.0,78.0,25.0,MH,1718658095.0
56,lorengau,-2.0226,147.2712,82.06,81.0,81.0,60.0,PG,1718658070.0
57,mata-utu,-13.2816,-176.1745,82.92,81.0,81.0,16.0,WF,1718658097.0
58,college,64.8569,-147.8028,79.45,32.0,32.0,20.0,US,1718658099.0
59,zangguy,,,,,,,,
60,iskateley,67.6803,53.1512,38.43,66.0,66.0,7.0,RU,1718658101.0
61,karratha,-20.7377,116.8463,70.86,82.0,82.0,61.0,AU,1718658102.0
62,veinticinco de mayo,-35.4323,-60.1727,60.98,69.0,69.0,1.0,AR,1718657829.0
63,harper,4.375,-7.7169,77.77,83.0,83.0,86.0,LR,1718658104.0
64,khorugh,37.4897,71.553,53.26,58.0,58.0,7.0,TJ,1718658105.0
65,turkmenbasy,40.0222,52.9552,79.57,44.0,44.0,0.0,TM,1718658106.0
66,jamestown,42.097,-79.2353,88.52,58.0,58.0,75.0,US,1718658002.0
67,harsova,44.6833,27.9333,73.56,56.0,56.0,45.0,RO,1718658109.0
68,vernon,50.2581,-119.2691,61.16,70.0,70.0,100.0,CA,1718657942.0
69,micoud,13.8167,-60.9,89.58,75.0,75.0,20.0,LC,1718658111.0
70,kirakira,-10.4544,161.9205,80.47,87.0,87.0,49.0,SB,1718658112.0
71,port alfred,-33.5906,26.891,70.05,51.0,51.0,94.0,ZA,1718658113.0
72,korla,41.7597,86.1469,78.35,27.0,27.0,100.0,CN,1718658061.0
73,boston,42.3584,-71.0598,83.37,60.0,60.0,100.0,US,1718657489.0
74,dudinka,69.4058,86.1778,39.52,79.0,79.0,100.0,RU,1718658117.0
75,ulladulla,-35.35,150.4667,47.23,73.0,73.0,4.0,AU,1718658118.0
76,fisterra,42.9049,-9.2629,63.01,96.0,96.0,47.0,ES,1718658119.0
77,ostersund,63.1792,14.6357,56.61,89.0,89.0,100.0,SE,1718658120.0
78,mizdah,31.4451,12.9801,84.7,23.0,23.0,1.0,LY,1718658121.0
79,taro,-8.3862,115.28,71.6,94.0,94.0,0.0,ID,1718658122.0
80,coahuayana de hidalgo,18.7,-103.6583,88.79,59.0,59.0,43.0,MX,1718658124.0
81,longyearbyen,78.2186,15.6401,46.24,66.0,66.0,20.0,SJ,1718658125.0
82,choibalsan,48.0667,114.5,65.16,46.0,46.0,6.0,MN,1718658126.0
83,ushuaia,-54.8,-68.3,29.86,69.0,69.0,75.0,AR,1718658127.0
84,le vauclin,14.5452,-60.8388,89.65,58.0,58.0,40.0,MQ,1718658128.0
85,klyuchi,52.2667,79.1667,68.31,87.0,87.0,59.0,RU,1718658129.0
86,fada,9.5667,8.3,71.94,83.0,83.0,30.0,NG,1718658130.0
87,huancavelica,-12.7667,-74.9833,48.79,51.0,51.0,92.0,PE,1718658105.0
88,alofi,-19.0595,-169.9187,80.49,78.0,78.0,40.0,NU,1718658133.0
89,zholymbet,51.7433,71.7122,67.05,90.0,90.0,2.0,KZ,1718658134.0
90,yeed,4.55,43.0333,81.84,51.0,51.0,100.0,SO,1718658135.0
91,west island,-12.1568,96.8225,76.98,94.0,94.0,75.0,CC,1718658136.0
92,tidjikja,18.5564,-11.4271,97.92,23.0,23.0,35.0,MR,1718658138.0
93,hithadhoo,-0.6,73.0833,82.29,77.0,77.0,74.0,MV,1718658085.0
94,keflavik,64.0049,-22.5624,48.63,81.0,81.0,100.0,IS,1718658140.0
95,blackmans bay,-43.0167,147.3167,42.73,94.0,94.0,100.0,AU,1718658141.0
96,bodaybo,57.8506,114.1933,45.5,84.0,84.0,5.0,RU,1718658142.0
97,arraial do cabo,-22.9661,-42.0278,78.76,69.0,69.0,0.0,BR,1718658144.0
98,gadzhiyevo,69.2551,33.3362,58.35,81.0,81.0,100.0,RU,1718658145.0
99,constantia,44.1833,28.65,70.7,73.0,73.0,9.0,RO,1718658146.0
100,malaya vishera,58.8454,32.2222,60.84,95.0,95.0,100.0,RU,1718658147.0
101,lazaro cardenas,17.9583,-102.2,85.96,68.0,68.0,26.0,MX,1718658148.0
102,walvis bay,-22.9575,14.5053,59.09,82.0,82.0,1.0,,1718658149.0
103,minas de marcona,-15.2119,-75.1103,56.5,81.0,81.0,45.0,PE,1718658151.0
104,hasaki,35.7333,140.8333,66.6,93.0,93.0,100.0,JP,1718658152.0
105,ihosy,-22.4,46.1167,59.14,95.0,95.0,29.0,MG,1718658153.0
106,olinda,-8.0089,-34.8553,80.33,61.0,61.0,40.0,BR,1718657920.0
107,si satchanalai,17.5169,99.7598,78.91,79.0,79.0,100.0,TH,1718658155.0
108,tiksi,71.6872,128.8694,43.99,78.0,78.0,21.0,RU,1718658156.0
109,meulaboh,4.1363,96.1285,76.24,93.0,93.0,100.0,ID,1718658014.0
110,sumenep,-7.0167,113.8667,78.8,70.0,70.0,0.0,ID,1718658158.0
111,fale old settlement,-9.3852,-171.2468,84.29,76.0,76.0,14.0,TK,1718658160.0
112,hassi messaoud,31.6804,6.0729,102.06,11.0,11.0,5.0,DZ,1718658161.0
113,kingston,17.997,-76.7936,88.75,62.0,62.0,20.0,JM,1718658049.0
114,ust-nera,64.5667,143.2,64.67,54.0,54.0,17.0,RU,1718658163.0
115,kodiak,57.79,-152.4072,53.04,67.0,67.0,100.0,US,1718658164.0
116,anadyr,64.75,177.4833,52.3,62.0,62.0,0.0,RU,1718658165.0
117,penzance,50.1186,-5.5371,57.88,87.0,87.0,100.0,GB,1718658166.0
118,caconda,-13.7333,15.0667,52.57,23.0,23.0,6.0,AO,1718658167.0
119,port mathurin,-19.6833,63.4167,74.84,84.0,84.0,100.0,MU,1718658169.0
120,vadso,70.0744,29.7487,54.48,87.0,87.0,75.0,NO,1718658170.0
121,port elizabeth,-33.918,25.5701,64.31,71.0,71.0,0.0,ZA,1718658055.0
122,hermanus,-34.4187,19.2345,56.8,80.0,80.0,3.0,ZA,1718658172.0
123,qujing,25.4833,103.7833,61.7,98.0,98.0,95.0,CN,1718658173.0
124,buka,40.8108,69.1986,76.05,47.0,47.0,99.0,UZ,1718658174.0
125,illizi,26.4833,8.4667,109.2,8.0,8.0,93.0,DZ,1718658050.0
126,greenville,35.6127,-77.3663,89.76,47.0,47.0,100.0,US,1718657802.0
127,remire-montjoly,4.9167,-52.2667,86.04,74.0,74.0,100.0,GF,1718658178.0
128,gwadar,25.1216,62.3254,82.54,91.0,91.0,10.0,PK,1718658179.0
129,tralee,52.2704,-9.7026,54.36,93.0,93.0,89.0,IE,1718658127.0
130,wenchang,30.904,118.4887,68.58,83.0,83.0,0.0,CN,1718658181.0
131,hawaiian paradise park,19.5933,-154.9731,77.74,84.0,84.0,100.0,US,1718658182.0
132,happy valley-goose bay,53.3168,-60.3315,73.71,33.0,33.0,75.0,CA,1718658015.0
133,cam ranh,11.9214,109.1591,84.16,70.0,70.0,0.0,VN,1718658185.0
134,georgetown,5.4112,100.3354,80.53,83.0,83.0,20.0,MY,1718658186.0
135,sasni,27.7167,78.0833,97.27,38.0,38.0,39.0,IN,1718658187.0
136,keren,15.7778,38.4581,77.13,60.0,60.0,9.0,ER,1718658188.0
137,talnakh,69.4865,88.3972,40.12,80.0,80.0,100.0,RU,1718658121.0
138,labrador city,52.9463,-66.9114,66.11,66.0,66.0,100.0,CA,1718658004.0
139,codrington,-38.2667,141.9667,39.2,90.0,90.0,17.0,AU,1718658191.0
140,chonchi,-42.6128,-73.8092,49.21,83.0,83.0,100.0,CL,1718658056.0
141,naracoorte,-36.9579,140.7383,38.7,90.0,90.0,29.0,AU,1718658194.0
142,ciudad cuauhtemoc,22.1833,-97.8333,89.71,66.0,66.0,0.0,MX,1718658195.0
143,sinop,41.7711,34.8709,61.09,91.0,91.0,4.0,TR,1718658196.0
144,ancud,-41.8697,-73.8203,48.7,81.0,81.0,56.0,CL,1718658062.0
145,vila franca do campo,37.7167,-25.4333,66.61,99.0,99.0,75.0,PT,1718658198.0
146,wailua homesteads,22.0669,-159.378,82.83,78.0,78.0,75.0,US,1718658199.0
147,durres,41.3231,19.4414,68.18,70.0,70.0,1.0,AL,1718658200.0
148,nishinoomote,30.7333,131.0,76.39,95.0,95.0,100.0,JP,1718658202.0
149,hilo,19.7297,-155.09,77.95,92.0,92.0,100.0,US,1718658126.0
150,jodhpur,26.2867,73.03,93.58,44.0,44.0,7.0,IN,1718658117.0
151,humahuaca,-23.2054,-65.3505,56.91,10.0,10.0,0.0,AR,1718658073.0
152,yuzhno-kurilsk,44.0306,145.8556,50.97,97.0,97.0,100.0,RU,1718658206.0
153,sachse,32.9762,-96.5953,95.4,55.0,55.0,0.0,US,1718658207.0
154,puerto baquerizo moreno,-0.9,-89.6,79.79,61.0,61.0,40.0,EC,1718658009.0
155,whitehorse,60.7161,-135.0538,76.1,24.0,24.0,75.0,CA,1718658122.0
156,ambatofinandrahana,-20.55,46.8,53.47,95.0,95.0,6.0,MG,1718658211.0
157,papatowai,-46.5619,169.4708,46.15,84.0,84.0,100.0,NZ,1718658212.0
158,mitu,1.1983,-70.1733,78.64,94.0,94.0,68.0,CO,1718658180.0
159,brokopondo,4.75,-55.1667,82.36,77.0,77.0,68.0,SR,1718658214.0
160,khorixas,-20.3667,14.9667,57.22,43.0,43.0,0.0,,1718658215.0
161,kotel'nikovo,47.6317,43.1461,73.72,63.0,63.0,0.0,RU,1718658216.0
162,isafjordur,66.0755,-23.124,42.19,86.0,86.0,98.0,IS,1718658217.0
163,glazunovka,52.4986,36.3275,62.35,97.0,97.0,93.0,RU,1718658218.0
164,kathmandu,27.7167,85.3167,73.62,100.0,100.0,75.0,NP,1718658220.0
165,kristiansund,63.1115,7.732,57.25,81.0,81.0,100.0,NO,1718658221.0
166,governor's harbour,,,,,,,,
167,lincoln city,44.9582,-124.0179,62.04,89.0,89.0,21.0,US,1718658007.0
168,andovoranto,-18.95,49.1,70.92,90.0,90.0,99.0,MG,1718658224.0
169,ushtobe,45.2514,77.9838,71.04,49.0,49.0,0.0,KZ,1718658225.0
170,hadibu,12.65,54.0333,81.72,80.0,80.0,100.0,YE,1718658226.0
171,port nelson,23.6333,-74.8333,82.26,76.0,76.0,12.0,BS,1718658228.0
172,kerikeri,-35.2268,173.9474,53.91,95.0,95.0,9.0,NZ,1718658229.0
173,asosa,10.0667,34.5333,63.27,86.0,86.0,100.0,ET,1718658132.0
174,port blair,11.6667,92.75,82.44,89.0,89.0,20.0,IN,1718658231.0
175,ilulissat,69.2167,-51.1,59.02,44.0,44.0,75.0,GL,1718658232.0
176,lethem,3.3803,-59.7968,83.37,75.0,75.0,37.0,GY,1718658233.0
177,pibor,,,,,,,,
178,saipan,15.1355,145.701,84.9,79.0,79.0,20.0,MP,1718658236.0
179,serhetabat,35.2799,62.3438,80.24,26.0,26.0,0.0,TM,1718658237.0
180,monrovia,6.3005,-10.7969,76.44,91.0,91.0,100.0,LR,1718658238.0
181,nadym,65.5333,72.5167,43.23,72.0,72.0,66.0,RU,1718658239.0
182,punta arenas,-53.15,-70.9167,30.31,69.0,69.0,20.0,CL,1718658240.0
183,enewetak,11.3474,162.3373,82.53,79.0,79.0,87.0,MH,1718658241.0
184,katsuren-haebaru,26.3369,127.8719,77.4,96.0,96.0,100.0,JP,1718658243.0
185,port lincoln,-34.7333,135.8667,54.28,86.0,86.0,100.0,AU,1718658244.0
186,qaqortoq,60.7167,-46.0333,35.92,98.0,98.0,100.0,GL,1718658245.0
187,lubumbashi,-11.6609,27.4794,56.46,49.0,49.0,2.0,CD,1718658086.0
188,santa elena de uairen,4.6167,-61.1333,67.86,95.0,95.0,99.0,VE,1718658247.0
189,vilyuchinsk,52.9306,158.4028,46.67,84.0,84.0,100.0,RU,1718658248.0
190,santander,43.4647,-3.8044,66.45,87.0,87.0,40.0,ES,1718657900.0
191,berbera,10.4396,45.0143,91.9,47.0,47.0,99.0,SO,1718658250.0
192,fuglafjordur,62.244,-6.814,46.87,91.0,91.0,100.0,FO,1718658252.0
193,lubartow,51.4603,22.6095,68.25,68.0,68.0,3.0,PL,1718658253.0
194,pamandzi,-12.7967,45.2794,80.38,78.0,78.0,0.0,YT,1718658250.0
195,yambio,4.5721,28.3955,67.66,94.0,94.0,78.0,SS,1718658255.0
196,uturoa,-16.7333,-151.4333,78.82,77.0,77.0,18.0,PF,1718658256.0
197,tanjung pandan,-2.75,107.65,78.15,87.0,87.0,97.0,ID,1718658257.0
198,san patricio,28.017,-97.5169,95.72,51.0,51.0,33.0,US,1718658258.0
199,tangalle,6.024,80.7911,78.48,90.0,90.0,67.0,LK,1718658260.0
200,bollene,44.2848,4.753,68.0,60.0,60.0,0.0,FR,1718658261.0
201,olonkinbyen,70.9221,-8.7187,32.34,79.0,79.0,44.0,SJ,1718658262.0
202,cockburn town,21.4612,-71.1419,82.89,75.0,75.0,13.0,TC,1718658263.0
203,mkushi,-13.6202,29.3939,54.46,68.0,68.0,2.0,ZM,1718658264.0
204,east london,-33.0153,27.9116,72.27,48.0,48.0,70.0,ZA,1718658265.0
205,piacabucu,-10.4056,-36.4344,75.49,87.0,87.0,3.0,BR,1718658126.0
206,susuman,62.7833,148.1667,53.78,61.0,61.0,100.0,RU,1718658267.0
207,bambui,-20.0064,-45.9769,66.16,44.0,44.0,2.0,BR,1718658096.0
208,abu zabad,12.35,29.25,87.82,43.0,43.0,98.0,SD,1718658270.0
209,portrush,55.1959,-6.6493,51.67,87.0,87.0,97.0,GB,1718658271.0
210,vorgashor,67.5833,63.95,32.0,82.0,82.0,16.0,RU,1718658272.0
211,saint-pierre,-21.3393,55.4781,67.68,73.0,73.0,0.0,RE,1718658273.0
212,amga,60.8953,131.9608,54.5,63.0,63.0,5.0,RU,1718658274.0
213,curvelo,-18.7564,-44.4308,70.66,37.0,37.0,0.0,BR,1718658105.0
214,lihue,21.9789,-159.3672,83.44,72.0,72.0,75.0,US,1718658276.0
215,mili,6.0815,171.735,82.71,75.0,75.0,93.0,MH,1718658278.0
216,okhotsk,59.3833,143.3,45.88,95.0,95.0,100.0,RU,1718658279.0
217,cidreira,-30.1811,-50.2056,63.64,94.0,94.0,100.0,BR,1718658280.0
218,al jawf,29.5,38.75,92.14,14.0,14.0,64.0,SA,1718658281.0
219,carencro,30.3171,-92.049,78.89,89.0,89.0,100.0,US,1718658050.0
220,mishelevka,52.8575,103.1719,61.97,97.0,97.0,100.0,RU,1718658283.0
221,ghormach,35.7306,63.7826,80.04,25.0,25.0,4.0,AF,1718658284.0
222,haiku-pauwela,20.9219,-156.3051,78.22,77.0,77.0,75.0,US,1718658285.0
223,coquimbo,-29.9533,-71.3436,58.73,61.0,61.0,0.0,CL,1718658219.0
224,bengkulu,-3.8004,102.2655,75.94,92.0,92.0,100.0,ID,1718658288.0
225,omdurman,15.6445,32.4777,87.37,42.0,42.0,100.0,SD,1718658033.0
226,radomsko,51.0671,19.4448,60.12,87.0,87.0,72.0,PL,1718658290.0
227,pangoa,-12.1167,-73.0,75.87,84.0,84.0,62.0,PE,1718658291.0
228,elizabeth city,36.2946,-76.2511,86.02,56.0,56.0,0.0,US,1718657425.0
229,yaren,-0.5472,166.916,84.58,70.0,70.0,93.0,NR,1718658293.0
230,boda,4.3189,17.4695,72.7,83.0,83.0,26.0,CF,1718658294.0
231,undurkhaan,47.3194,110.6556,64.94,48.0,48.0,49.0,MN,1718658296.0
232,kasamwa,-2.85,32.4333,65.97,54.0,54.0,6.0,TZ,1718658297.0
233,djibouti,11.5,42.5,88.72,38.0,38.0,96.0,DJ,1718658298.0
234,iquique,-20.2208,-70.1431,64.44,79.0,79.0,18.0,CL,1718658023.0
235,mahina,-17.5065,-149.489,82.17,69.0,69.0,0.0,PF,1718658300.0
236,puerto ayora,-0.7393,-90.3518,78.76,92.0,92.0,58.0,EC,1718658301.0
237,weno,7.4515,151.8468,83.35,81.0,81.0,96.0,FM,1718658303.0
238,antonio enes,-16.2325,39.9086,68.76,89.0,89.0,14.0,MZ,1718658131.0
239,deniliquin,-35.5333,144.9667,37.17,92.0,92.0,2.0,AU,1718658306.0
240,ndioum,16.5129,-14.6471,98.46,22.0,22.0,22.0,SN,1718658307.0
241,trinity beach,-16.7888,145.6968,59.02,94.0,94.0,58.0,AU,1718658308.0
242,bayganin,48.6947,55.8742,85.77,25.0,25.0,6.0,KZ,1718658309.0
243,anna regina,7.2644,-58.5077,78.6,84.0,84.0,100.0,GY,1718658311.0
244,utrik,11.2278,169.8474,82.17,80.0,80.0,83.0,MH,1718658312.0
245,barra de santo antonio,-9.4047,-35.5072,76.28,78.0,78.0,14.0,BR,1718658098.0
246,cargados carajos,,,,,,,,
247,saynshand,44.8824,110.1163,72.63,28.0,28.0,90.0,MN,1718658315.0
248,richards bay,-28.783,32.0377,66.83,66.0,66.0,66.0,ZA,1718658036.0
249,puerto san carlos,,,,,,,,
250,santa terezinha,-29.9002,-50.0904,64.47,95.0,95.0,100.0,BR,1718658319.0
251,saldanha,-33.0117,17.9442,59.05,90.0,90.0,87.0,ZA,1718658320.0
252,pangai,-19.8,-174.35,80.71,83.0,83.0,75.0,TO,1718658321.0
253,jamaame,0.0697,42.745,77.83,82.0,82.0,100.0,SO,1718658322.0
254,tucupita,9.0622,-62.051,83.43,77.0,77.0,60.0,VE,1718658323.0
255,zavitinsk,50.1167,129.45,48.13,90.0,90.0,0.0,RU,1718658324.0
256,puerto deseado,-47.7503,-65.8938,41.99,94.0,94.0,100.0,AR,1718658094.0
257,sandnessjoen,66.0217,12.6316,62.71,67.0,67.0,75.0,NO,1718658327.0
258,rongelap,11.1635,166.8941,82.78,80.0,80.0,91.0,MH,1718658328.0
259,westport,41.1415,-73.3579,86.31,62.0,62.0,0.0,US,1718658269.0
260,salinopolis,-0.6136,-47.3561,79.57,82.0,82.0,34.0,BR,1718658270.0
261,konarka,19.9,86.1167,86.4,86.0,86.0,100.0,IN,1718658331.0
262,buritis,-15.6178,-46.4233,71.47,43.0,43.0,0.0,BR,1718658127.0
263,puerto madero,14.7208,-92.4215,84.4,79.0,79.0,75.0,MX,1718658278.0
264,tezu,27.9167,96.1667,74.16,99.0,99.0,100.0,IN,1718658334.0
265,mesa,33.4223,-111.8226,106.95,11.0,11.0,0.0,US,1718658181.0
266,fayzabad,37.1166,70.58,73.04,41.0,41.0,78.0,AF,1718658337.0
267,aswan,24.0934,32.907,103.3,12.0,12.0,0.0,EG,1718658217.0
268,igarka,67.4667,86.5833,41.63,75.0,75.0,100.0,RU,1718658339.0
269,new norfolk,-42.7826,147.0587,43.92,95.0,95.0,47.0,AU,1718658340.0
270,ivdel',60.6911,60.4206,51.44,80.0,80.0,4.0,RU,1718658287.0
271,san jose village,,,,,,,,
272,mckenzie,47.7084,-103.4477,55.02,100.0,100.0,100.0,US,1718658343.0
273,ugoofaaru,5.6667,73.0,83.98,76.0,76.0,13.0,MV,1718658345.0
274,mount gambier,-37.8333,140.7667,37.15,95.0,95.0,0.0,AU,1718658346.0
275,nova sintra,14.8667,-24.7167,74.32,80.0,80.0,51.0,CV,1718658347.0
276,st. john's,47.5649,-52.7093,64.27,59.0,59.0,20.0,CA,1718658295.0
277,fuvahmulah,,,,,,,,
278,naze,28.3667,129.4833,76.12,91.0,91.0,100.0,JP,1718658350.0
279,nuriootpa,-34.4833,139.0,52.97,57.0,57.0,100.0,AU,1718658351.0
280,taoudenni,22.6783,-3.9836,99.7,20.0,20.0,41.0,ML,1718658353.0
281,vorkuta,67.5,64.0,32.79,81.0,81.0,16.0,RU,1718658354.0
282,necochea,-38.5473,-58.7368,55.63,57.0,57.0,83.0,AR,1718658106.0
283,kwang binh,17.4833,106.6,87.01,60.0,60.0,100.0,VN,1718658356.0
284,hayma',,,,,,,,
285,sitka,57.0531,-135.33,55.29,71.0,71.0,100.0,US,1718658358.0
286,hamilton,39.1834,-84.5333,94.95,52.0,52.0,0.0,US,1718658359.0
287,lompoc,34.6391,-120.4579,82.78,63.0,63.0,0.0,US,1718658361.0
288,dakhla,23.6848,-15.958,68.02,83.0,83.0,3.0,EH,1718658357.0
289,papao,-17.75,-149.55,82.08,84.0,84.0,15.0,PF,1718658363.0
290,maroantsetra,-15.4333,49.7333,73.15,87.0,87.0,62.0,MG,1718658364.0
291,baiao,-2.7906,-49.6717,82.51,66.0,66.0,90.0,BR,1718658095.0
292,ak-dovurak,51.1833,90.6,57.54,73.0,73.0,72.0,RU,1718658366.0
293,awjilah,29.1081,21.2869,90.32,16.0,16.0,0.0,LY,1718658367.0
294,longonjo,-12.9067,15.2533,55.76,27.0,27.0,7.0,AO,1718658251.0
295,katsuura,35.1333,140.3,66.15,97.0,97.0,100.0,JP,1718658123.0
296,invercargill,-46.4,168.35,42.03,96.0,96.0,50.0,NZ,1718658371.0
297,san antonio de pale,-1.4014,5.6325,76.62,82.0,82.0,100.0,GQ,1718658372.0
298,fort bragg,35.139,-79.006,92.19,51.0,51.0,100.0,US,1718658373.0
299,klaksvik,62.2266,-6.589,47.32,90.0,90.0,100.0,FO,1718658374.0
300,san jose de jachal,-30.2406,-68.7469,70.18,7.0,7.0,0.0,AR,1718658375.0
301,merrimack,42.8651,-71.4934,84.65,63.0,63.0,75.0,US,1718658376.0
302,cavelossim,15.1726,73.9419,80.58,84.0,84.0,98.0,IN,1718658377.0
303,ancaster,43.2257,-79.9767,86.83,75.0,75.0,75.0,CA,1718658378.0
304,revda,56.801,59.9303,55.27,83.0,83.0,67.0,RU,1718658380.0
305,regina,50.4501,-104.6178,53.58,77.0,77.0,100.0,CA,1718658381.0
306,ketchikan,55.3422,-131.6461,60.35,70.0,70.0,80.0,US,1718658382.0
307,ubinskoye,55.3068,79.6802,61.34,98.0,98.0,1.0,RU,1718658383.0
308,mahdia,35.5047,11.0622,82.35,61.0,61.0,2.0,TN,1718658384.0
309,paslek,54.0616,19.6593,63.55,95.0,95.0,74.0,PL,1718658230.0
310,vila velha,-20.3297,-40.2925,73.35,83.0,83.0,0.0,BR,1718658386.0
311,natal,-5.795,-35.2094,77.65,83.0,83.0,40.0,BR,1718658211.0
312,palu,-0.8917,119.8707,75.97,99.0,99.0,100.0,ID,1718658389.0
313,usinsk,65.9939,57.5281,42.89,67.0,67.0,7.0,RU,1718658390.0
314,pahrump,36.2083,-115.9839,93.43,14.0,14.0,0.0,US,1718658391.0
315,cromwell,41.5951,-72.6454,86.0,59.0,59.0,0.0,US,1718658306.0
316,sant lluis,39.8526,4.2594,73.8,83.0,83.0,0.0,ES,1718658393.0
317,tongliao,43.6125,122.2653,66.02,51.0,51.0,6.0,CN,1718658394.0
318,sisimiut,66.9395,-53.6735,44.4,85.0,85.0,100.0,GL,1718658396.0
319,tomohon,1.3346,124.8392,63.54,96.0,96.0,93.0,ID,1718658397.0
320,manta,-0.95,-80.7333,78.58,78.0,78.0,100.0,EC,1718658129.0
321,quesada,10.3238,-84.4271,83.71,88.0,88.0,99.0,CR,1718658225.0
322,kuanda,56.3161,116.0806,46.99,94.0,94.0,95.0,RU,1718658400.0
323,touros,-5.1989,-35.4608,76.64,84.0,84.0,11.0,BR,1718658364.0
324,palikir - national government center,6.9248,158.1611,81.34,83.0,83.0,100.0,FM,1718658402.0
325,serenje,-13.2325,30.2352,52.29,67.0,67.0,1.0,ZM,1718658403.0
326,nemuro,43.3236,145.575,55.15,91.0,91.0,100.0,JP,1718658404.0
327,jinchang,38.4953,102.1739,69.49,49.0,49.0,94.0,CN,1718658267.0
328,tazovsky,67.4667,78.7,39.11,80.0,80.0,99.0,RU,1718658407.0
329,san antonio,29.4241,-98.4936,100.6,49.0,49.0,40.0,US,1718658238.0
330,reggane,26.7158,0.1714,104.22,8.0,8.0,27.0,DZ,1718658255.0
331,kataragama,,,,,,,,
332,la passe,45.5549,-0.8967,71.83,90.0,90.0,100.0,FR,1718658411.0
333,nuuk,64.1835,-51.7216,41.61,87.0,87.0,75.0,GL,1718658412.0
334,chatham,51.3789,0.5279,65.12,41.0,41.0,99.0,GB,1718658327.0
335,swakopmund,-22.6833,14.5333,58.98,80.0,80.0,3.0,,1718658415.0
336,lata,40.1629,-8.3327,63.07,97.0,97.0,100.0,PT,1718658416.0
337,arboga,59.3939,15.8388,60.69,95.0,95.0,100.0,SE,1718658417.0
338,holualoa,19.6228,-155.9522,79.56,79.0,79.0,75.0,US,1718658337.0
339,pandan,14.0453,124.1694,79.79,83.0,83.0,67.0,PH,1718658419.0
340,kapuskasing,49.4169,-82.4331,82.89,29.0,29.0,95.0,CA,1718658412.0
341,brisas barra de suchiate,14.55,-92.2167,84.38,95.0,95.0,100.0,MX,1718658246.0
342,mar del plata,-38.0023,-57.5575,60.82,67.0,67.0,0.0,AR,1718658309.0
343,belfast,54.5833,-5.9333,53.42,77.0,77.0,100.0,GB,1718658424.0
344,cide,41.8921,33.0044,66.7,66.0,66.0,0.0,TR,1718658425.0
345,vilyuysk,63.7553,121.6247,42.71,84.0,84.0,100.0,RU,1718658426.0
346,nova russas,-4.7067,-40.5631,79.2,59.0,59.0,87.0,BR,1718658220.0
347,dongcun,36.7767,121.1597,68.59,55.0,55.0,30.0,CN,1718658200.0
348,aras-asan,8.8908,126.3033,77.07,88.0,88.0,95.0,PH,1718658429.0
349,roxas,11.5853,122.7511,77.14,86.0,86.0,100.0,PH,1718658430.0
350,ar raqqah,35.95,39.0167,86.83,17.0,17.0,0.0,SY,1718658431.0
351,alice springs,-23.7,133.8833,49.55,81.0,81.0,5.0,AU,1718658433.0
352,jasper,37.2001,-94.3502,91.45,55.0,55.0,75.0,US,1718657949.0
353,sonsorol village,,,,,,,,
354,buala,-8.145,159.5921,81.34,84.0,84.0,77.0,SB,1718658436.0
355,stokesdale,36.2371,-79.9795,89.22,69.0,69.0,75.0,US,1718658437.0
356,flying fish cove,-10.4217,105.6791,78.48,88.0,88.0,100.0,CX,1718658438.0
357,ponta delgada,37.7333,-25.6667,66.92,72.0,72.0,20.0,PT,1718658440.0
358,caleta de carquin,-11.0925,-77.6267,67.19,78.0,78.0,14.0,PE,1718658441.0
359,woolgoolga,-30.1106,153.2007,51.67,66.0,66.0,0.0,AU,1718658442.0
360,mahanoro,-19.9,48.8,70.43,89.0,89.0,100.0,MG,1718658443.0
361,louis trichardt,-23.0439,29.9032,53.31,66.0,66.0,0.0,ZA,1718658444.0
362,wotho,10.1657,166.0102,83.19,78.0,78.0,56.0,MH,1718658445.0
363,skowhegan,44.7651,-69.7192,72.16,86.0,86.0,100.0,US,1718658446.0
364,cooma,-36.2333,149.1333,34.83,95.0,95.0,6.0,AU,1718658447.0
365,saint-philippe,-21.3585,55.7679,67.59,70.0,70.0,7.0,RE,1718658449.0
366,lebu,-37.6167,-73.65,52.25,83.0,83.0,71.0,CL,1718658450.0
367,broome,42.2506,-75.833,92.17,56.0,56.0,0.0,US,1718658451.0
368,markivka,49.5229,39.5705,65.5,91.0,91.0,2.0,UA,1718658452.0
369,tandalti,13.0167,31.8667,87.8,49.0,49.0,46.0,SD,1718658453.0
370,aasiaat,68.7098,-52.8699,41.65,79.0,79.0,33.0,GL,1718658190.0
371,ziniare,12.5822,-1.2983,86.14,52.0,52.0,9.0,BF,1718658456.0
372,visby,57.6409,18.296,55.81,93.0,93.0,42.0,SE,1718658457.0
373,tzucacab,20.0667,-89.05,76.75,99.0,99.0,100.0,MX,1718658458.0
374,zeya,53.75,127.2667,53.13,64.0,64.0,100.0,RU,1718658459.0
375,vegachi,6.7614,-74.7947,82.62,50.0,50.0,21.0,CO,1718658460.0
376,katabu,-4.9333,122.5167,75.65,74.0,74.0,100.0,ID,1718658461.0
377,kingsford,-33.924,151.2275,50.74,72.0,72.0,20.0,AU,1718658462.0
378,mount isa,-20.7333,139.5,40.77,87.0,87.0,5.0,AU,1718658464.0
379,praia,14.9215,-23.5087,75.87,74.0,74.0,29.0,CV,1718658465.0
380,madimba,-10.4,40.3333,78.12,75.0,75.0,100.0,TZ,1718658466.0
381,semirom,31.4167,51.5667,65.48,27.0,27.0,77.0,IR,1718658467.0
382,las higueras,-33.0923,-64.289,61.56,59.0,59.0,100.0,AR,1718658468.0
383,la'ie,21.6477,-157.9253,87.76,74.0,74.0,70.0,US,1718658469.0
384,fort mcmurray,56.7268,-111.381,47.79,81.0,81.0,100.0,CA,1718658390.0
385,krasnyy yar,46.5331,48.3456,76.93,45.0,45.0,100.0,RU,1718658172.0
386,luchegorsk,46.4764,134.2569,48.51,91.0,91.0,82.0,RU,1718658473.0
387,newala kisimani,-10.95,39.2833,63.75,85.0,85.0,69.0,TZ,1718658320.0
388,indi,17.1667,75.9667,80.13,75.0,75.0,99.0,IN,1718658475.0
389,basco,20.4487,121.9702,85.82,78.0,78.0,100.0,PH,1718658476.0
390,tosontsengel,48.7567,98.2839,50.38,88.0,88.0,100.0,MN,1718658477.0
391,carutapera,-1.195,-46.02,75.9,92.0,92.0,11.0,BR,1718658478.0
392,kangiwa,12.5521,3.8187,90.84,45.0,45.0,19.0,NG,1718658479.0
393,chiredzi,-21.05,31.6667,58.93,64.0,64.0,0.0,ZW,1718658481.0
394,inhambane,-23.865,35.3833,66.9,77.0,77.0,54.0,MZ,1718658482.0
395,knjazevac,43.5648,22.2502,74.82,100.0,100.0,0.0,RS,1718658483.0
396,port hedland,-20.3167,118.5667,62.65,94.0,94.0,9.0,AU,1718658484.0
397,yung shue wan,22.2333,114.1167,85.75,85.0,85.0,93.0,HK,1718658485.0
398,kruisfontein,-34.0033,24.7314,61.88,72.0,72.0,50.0,ZA,1718658486.0
399,los frentones,-26.4077,-61.4137,62.65,96.0,96.0,100.0,AR,1718658488.0
400,capri,40.5507,14.2426,74.35,68.0,68.0,0.0,IT,1718658489.0
401,suai,,,,,,,,
402,lucas,41.6501,-83.6666,98.56,36.0,36.0,40.0,US,1718658491.0
403,formosa do rio preto,-11.0483,-45.1931,75.49,30.0,30.0,0.0,BR,1718658202.0
404,marsh harbour,26.5412,-77.0636,81.72,67.0,67.0,32.0,BS,1718658493.0
405,coari,-4.085,-63.1414,82.8,75.0,75.0,100.0,BR,1718658494.0
406,vyksa,55.3175,42.1744,65.48,95.0,95.0,6.0,RU,1718658496.0
407,borzya,50.3833,116.5167,61.07,51.0,51.0,98.0,RU,1718658497.0
408,comodoro rivadavia,-45.8667,-67.5,45.95,72.0,72.0,84.0,AR,1718658443.0
409,tacuarembo,-31.7333,-55.9833,57.76,91.0,91.0,100.0,UY,1718658499.0
410,belmonte,-15.8631,-38.8828,73.98,76.0,76.0,0.0,BR,1718658500.0
411,rawson,-43.3002,-65.1023,55.76,47.0,47.0,100.0,AR,1718658501.0
412,pitanga,-24.7572,-51.7614,66.22,60.0,60.0,14.0,BR,1718658502.0
413,chibougamau,49.9168,-74.3659,71.78,70.0,70.0,98.0,CA,1718658450.0
414,datong,40.0936,113.2914,71.22,29.0,29.0,81.0,CN,1718658505.0
415,lorica,9.2365,-75.8135,85.95,74.0,74.0,91.0,CO,1718658405.0
416,oualidia,,,,,,,,
417,spring creek,40.7266,-115.5859,55.09,35.0,35.0,100.0,US,1718658508.0
418,bandarbeyla,9.4942,50.8122,77.7,85.0,85.0,97.0,SO,1718658509.0
419,el porvenir,13.7617,-87.3458,78.13,99.0,99.0,100.0,HN,1718658510.0
420,zaozersk,69.4005,32.4476,55.22,88.0,88.0,85.0,RU,1718658512.0
421,kavaratti,10.5669,72.642,81.5,84.0,84.0,97.0,IN,1718658513.0
422,madalena,41.2162,-8.3345,64.45,94.0,94.0,100.0,PT,1718658514.0
423,chur,46.8499,9.5329,63.16,88.0,88.0,55.0,CH,1718658515.0
424,greymouth,-42.4667,171.2,47.28,87.0,87.0,98.0,NZ,1718658223.0
425,san jose del cabo,23.0589,-109.6977,103.77,41.0,41.0,0.0,MX,1718658517.0
426,devinuwara,,,,,,,,
427,temiskaming shores,47.4938,-79.7153,85.8,75.0,75.0,83.0,CA,1718658239.0
428,ytyk-kyuyel',,,,,,,,
429,yashkul',46.1711,45.3435,84.22,44.0,44.0,22.0,RU,1718658522.0
430,vammala,61.3333,22.9,61.57,99.0,99.0,100.0,FI,1718658452.0
431,tanjung selor,,,,,,,,
432,ashland,40.8167,-82.2665,92.97,57.0,57.0,26.0,US,1718658003.0
433,birzebbuga,35.8258,14.5269,78.15,69.0,69.0,0.0,MT,1718658526.0
434,slave lake,55.2834,-114.769,50.32,39.0,39.0,99.0,CA,1718658527.0
435,perry,37.2506,-83.1999,92.12,68.0,68.0,93.0,US,1718658529.0
436,box elder,41.5005,-112.8764,56.16,46.0,46.0,92.0,US,1718658530.0
437,ndikinimeki,4.7667,10.8333,67.01,99.0,99.0,51.0,CM,1718658531.0
438,puerto escondido,15.85,-97.0667,81.39,85.0,85.0,100.0,MX,1718658241.0
439,brisas de zicatela,15.8369,-97.0419,81.18,85.0,85.0,100.0,MX,1718658533.0
440,kodok,,,,,,,,
441,sabha,27.0377,14.4283,97.05,13.0,13.0,4.0,LY,1718658536.0
442,jaszbereny,47.5,19.9167,73.33,60.0,60.0,71.0,HU,1718658464.0
443,champerico,14.3,-91.9167,77.76,92.0,92.0,100.0,GT,1718658538.0
444,dingcheng,32.1272,115.0394,74.19,75.0,75.0,0.0,CN,1718658539.0
445,mogocha,53.7333,119.7667,49.15,95.0,95.0,100.0,RU,1718658540.0
446,pula,44.8683,13.8481,64.96,94.0,94.0,0.0,HR,1718658541.0
447,fray luis beltran,-39.3167,-65.7667,55.78,44.0,44.0,100.0,AR,1718658542.0
448,broken hill,-31.95,141.4333,48.94,47.0,47.0,100.0,AU,1718658544.0
449,gordonvale,-17.0936,145.7842,58.91,71.0,71.0,84.0,AU,1718658545.0
450,alotau,,,,,,,,
451,zaraza,9.3503,-65.3245,82.63,77.0,77.0,100.0,VE,1718658547.0
452,rikaze,29.25,88.8833,59.32,45.0,45.0,8.0,CN,1718658264.0
453,tofol,5.3248,163.0078,83.44,73.0,73.0,18.0,FM,1718658550.0
454,lichtenburg,-26.152,26.1597,50.74,61.0,61.0,2.0,ZA,1718658551.0
455,yamada,39.4667,141.95,65.28,77.0,77.0,100.0,JP,1718658552.0
456,gumla,23.05,84.55,83.75,54.0,54.0,100.0,IN,1718658553.0
457,beidaihehaibin,39.8222,119.5181,73.26,59.0,59.0,7.0,CN,1718658313.0
458,sarbogard,46.8869,18.6204,69.35,65.0,65.0,84.0,HU,1718658555.0
459,queenstown,-31.8976,26.8753,55.74,57.0,57.0,14.0,ZA,1718658556.0
460,inirida,3.8653,-67.9239,78.01,93.0,93.0,85.0,CO,1718658557.0
461,cabo san lucas,22.8909,-109.9124,95.31,24.0,24.0,0.0,MX,1718658500.0
462,mundri,-6.9558,111.71,74.39,95.0,95.0,0.0,ID,1718658560.0
463,ferizli,40.9408,30.4858,55.63,88.0,88.0,0.0,TR,1718658561.0
464,luocheng,29.3848,104.0286,73.87,75.0,75.0,100.0,CN,1718658562.0
465,ngorongoro,-3.2397,35.4875,50.38,68.0,68.0,0.0,TZ,1718658563.0
466,saint-louis,16.3333,-15.0,93.42,27.0,27.0,13.0,SN,1718658564.0
467,margate,51.3813,1.3862,60.69,71.0,71.0,100.0,GB,1718658285.0
468,magadan,59.5667,150.8,47.08,84.0,84.0,100.0,RU,1718658430.0
469,bembereke,10.2283,2.6634,81.91,57.0,57.0,65.0,BJ,1718658568.0
470,zhezqazghan,47.7833,67.7667,73.83,57.0,57.0,8.0,KZ,1718658569.0
471,cheongsong gun,36.4335,129.057,58.1,75.0,75.0,100.0,KR,1718658570.0
472,urangan,-25.3,152.9,48.2,72.0,72.0,0.0,AU,1718658571.0
473,pathein,16.7833,94.7333,79.27,90.0,90.0,100.0,MM,1718658572.0
474,ca mau,9.1769,105.15,78.64,86.0,86.0,52.0,VN,1718658573.0
475,cumaribo,,,,,,,,
476,glace bay,46.1969,-59.957,76.78,47.0,47.0,53.0,CA,1718658576.0
477,koungou,-12.7336,45.2042,80.31,78.0,78.0,0.0,YT,1718658577.0
478,tinogasta,-28.0632,-67.5649,67.1,23.0,23.0,0.0,AR,1718658578.0
479,masterton,-40.9597,175.6575,48.09,94.0,94.0,90.0,NZ,1718658579.0
480,villa gesell,-37.2639,-56.973,55.06,72.0,72.0,0.0,AR,1718658580.0
481,auburn,47.3073,-122.2284,63.18,77.0,77.0,100.0,US,1718658581.0
482,praia da vitoria,38.7333,-27.0667,68.76,75.0,75.0,93.0,PT,1718658582.0
483,merizo village,13.2658,144.6691,83.98,88.0,88.0,98.0,GU,1718658583.0
484,galax,36.6612,-80.924,82.96,83.0,83.0,75.0,US,1718658327.0
485,trancas,-26.2314,-65.2803,67.21,50.0,50.0,0.0,AR,1718658586.0
486,bonthe,7.5264,-12.505,78.01,86.0,86.0,100.0,SL,1718658587.0
487,haci zeynalabdin,40.6233,49.5586,75.34,44.0,44.0,1.0,AZ,1718658588.0
488,forde,61.4522,5.8572,56.14,93.0,93.0,100.0,NO,1718658589.0
489,kushiro,42.975,144.3747,58.39,88.0,88.0,100.0,JP,1718658590.0
490,geraldton,-28.7667,114.6,57.61,88.0,88.0,100.0,AU,1718658591.0
491,alesund,62.4723,6.1549,57.33,86.0,86.0,75.0,NO,1718658588.0
492,petropavlovsk-kamchatsky,53.0452,158.6483,45.19,87.0,87.0,75.0,RU,1718658386.0
493,colonia,50.9333,6.95,64.96,87.0,87.0,0.0,DE,1718658439.0
494,muzayri',,,,,,,,
495,male,4.1748,73.5089,83.39,77.0,77.0,56.0,MV,1718658597.0
496,marat,25.0701,45.4615,91.06,10.0,10.0,0.0,SA,1718658598.0
497,ba,,,,,,,,
498,nieul-sur-mer,46.2058,-1.1645,68.86,84.0,84.0,0.0,FR,1718658600.0
499,dnipro,48.45,34.9833,67.96,81.0,81.0,100.0,UA,1718658482.0
500,bartolome maso,,,,,,,,
501,ad dabbah,18.05,30.95,99.97,17.0,17.0,96.0,SD,1718658604.0
502,crane,31.3974,-102.3501,99.7,26.0,26.0,0.0,US,1718658605.0
503,cannonvale,-20.2833,148.7,63.79,77.0,77.0,4.0,AU,1718658606.0
504,launceston,-41.45,147.1667,37.15,100.0,100.0,49.0,AU,1718658395.0
505,holmsund,63.706,20.3641,58.95,93.0,93.0,100.0,SE,1718658609.0
506,kapit,2.0167,112.9333,73.38,99.0,99.0,92.0,MY,1718658610.0
507,diamantino,-14.4086,-56.4461,82.78,34.0,34.0,0.0,BR,1718658611.0
508,callao,-12.0667,-77.15,70.41,77.0,77.0,100.0,PE,1718658612.0
509,tshela,-4.9833,12.9333,69.4,93.0,93.0,100.0,CD,1718658613.0
510,mont-tremblant,46.1949,-74.6264,77.36,83.0,83.0,91.0,CA,1718658614.0
511,aldama,22.9167,-98.0667,90.37,38.0,38.0,46.0,MX,1718658615.0
512,bargaal,11.2864,51.0773,83.57,68.0,68.0,73.0,SO,1718658617.0
513,ebaye,8.7748,167.7392,82.42,83.0,83.0,75.0,MH,1718658574.0
514,ta'if,21.2703,40.4158,81.61,17.0,17.0,2.0,SA,1718658619.0
515,muroto-misakicho,33.2833,134.15,75.16,96.0,96.0,100.0,JP,1718658620.0
516,tibati,6.4667,12.6333,69.44,86.0,86.0,75.0,CM,1718658621.0
517,kamianka,49.0318,32.104,63.91,90.0,90.0,9.0,UA,1718658622.0
518,anta,25.15,76.3,93.88,42.0,42.0,100.0,IN,1718658430.0
519,nanchong,30.7951,106.0847,73.22,87.0,87.0,87.0,CN,1718658625.0
520,ndele,8.4109,20.6473,73.71,81.0,81.0,93.0,CF,1718658626.0
521,obama,35.4958,135.746,65.95,98.0,98.0,100.0,JP,1718658627.0
522,vingt cinq,,,,,,,,
523,colchani,-20.3,-66.9333,45.99,32.0,32.0,0.0,BO,1718658629.0
524,bhawanipatna,19.9,83.1667,79.81,79.0,79.0,100.0,IN,1718658630.0
525,gargalianoi,37.0667,21.6333,75.36,64.0,64.0,8.0,GR,1718658631.0
526,starozhilovo,54.2254,39.916,65.59,96.0,96.0,25.0,RU,1718658633.0
527,tsiombe,-25.3,45.4833,63.91,74.0,74.0,1.0,MG,1718658634.0
528,sao joao da barra,-21.6403,-41.0511,75.29,83.0,83.0,9.0,BR,1718658635.0
529,beyneu,45.3167,55.2,89.82,23.0,23.0,0.0,KZ,1718658636.0
530,arkalyk,50.2486,66.9114,71.62,74.0,74.0,7.0,KZ,1718658637.0
531,palmer,42.1584,-72.3287,83.52,59.0,59.0,75.0,US,1718658490.0
532,lisakovsk,52.5369,62.4936,68.02,80.0,80.0,34.0,KZ,1718658639.0
533,midelt,32.6852,-4.7451,75.81,28.0,28.0,0.0,MA,1718658640.0
534,villanueva del rio y minas,37.655,-5.7137,74.62,46.0,46.0,59.0,ES,1718658642.0
535,evinayong,1.4368,10.5512,68.4,99.0,99.0,62.0,GQ,1718658643.0
536,labytnangi,66.6572,66.4183,41.09,76.0,76.0,25.0,RU,1718658644.0
537,sao jose da coroa grande,-8.8978,-35.1478,77.56,78.0,78.0,17.0,BR,1718658645.0
538,dhidhdhoo,6.8833,73.1,84.15,76.0,76.0,25.0,MV,1718658646.0
539,mananjary,-21.2167,48.3333,69.76,87.0,87.0,100.0,MG,1718658647.0
540,mto wa mbu,-3.35,35.85,65.52,64.0,64.0,0.0,TZ,1718658648.0
541,north shore,-36.8,174.75,56.46,82.0,82.0,52.0,NZ,1718658649.0
542,darwin,-12.4611,130.8418,66.18,85.0,85.0,20.0,AU,1718658651.0
543,yurga,55.7231,84.8861,61.05,97.0,97.0,99.0,RU,1718658652.0
544,nikolayevsk-on-amure,53.1406,140.73,42.69,97.0,97.0,100.0,RU,1718658653.0
545,doctor alberto oviedo mota,32.2275,-115.1697,106.0,7.0,7.0,0.0,MX,1718658654.0
546,las tablas,7.7667,-80.2833,85.08,74.0,74.0,100.0,PA,1718658655.0
547,yangor,,,,,,,,
548,plettenberg bay,-34.0527,23.3716,59.81,68.0,68.0,17.0,ZA,1718658657.0
549,labuan,5.2767,115.2417,81.21,79.0,79.0,100.0,MY,1718658659.0
550,nyaunglebin,17.95,96.7333,76.03,98.0,98.0,100.0,MM,1718658553.0
551,bac lieu,9.285,105.7244,81.64,81.0,81.0,24.0,VN,1718658661.0
552,pacific grove,36.6177,-121.9166,74.44,61.0,61.0,0.0,US,1718658409.0
553,lauro de freitas,-12.8944,-38.3272,78.82,65.0,65.0,75.0,BR,1718658575.0
554,okha,53.5739,142.9478,41.25,99.0,99.0,100.0,RU,1718658664.0
555,limulunga,-15.0969,23.1376,57.0,44.0,44.0,6.0,ZM,1718658666.0
556,ta`u,-14.2336,-169.5144,81.66,79.0,79.0,54.0,AS,1718658667.0
557,portland,45.5234,-122.6762,62.83,80.0,80.0,75.0,US,1718657940.0
558,laayoune plage,,,,,,,,
559,port-cartier,50.0334,-66.8654,71.28,53.0,53.0,100.0,CA,1718658670.0
560,rybinsk,58.0446,38.8426,63.88,97.0,97.0,100.0,RU,1718658671.0
561,gulf breeze,30.3571,-87.1639,87.82,76.0,76.0,40.0,US,1718658400.0
562,sao francisco,-15.9486,-44.8644,74.73,38.0,38.0,0.0,BR,1718658674.0
563,tinde,-3.8833,33.2,66.34,42.0,42.0,1.0,TZ,1718658675.0
564,rosetta,31.4044,30.4164,76.3,75.0,75.0,0.0,EG,1718658645.0
565,miri,4.4148,114.0089,77.04,91.0,91.0,100.0,MY,1718658677.0
566,khuzdar,27.7384,66.6434,83.86,49.0,49.0,41.0,PK,1718658678.0
567,boca do acre,-8.7522,-67.3978,93.04,38.0,38.0,6.0,BR,1718658679.0
568,mikumi,-7.4041,36.9831,64.8,62.0,62.0,4.0,TZ,1718658551.0
569,bidar,17.9,77.55,82.24,66.0,66.0,100.0,IN,1718658682.0
570,riverton,40.5219,-111.9391,75.18,35.0,35.0,20.0,US,1718658683.0
571,howard springs,-12.497,131.047,66.11,91.0,91.0,24.0,AU,1718658684.0
572,fort st. john,56.2499,-120.8529,57.09,35.0,35.0,75.0,CA,1718658685.0
573,pisco,-13.7,-76.2167,69.85,73.0,73.0,8.0,PE,1718658686.0
574,dire dawa,9.5931,41.8661,76.3,48.0,48.0,100.0,ET,1718658688.0
575,posto fiscal rolim de moura,-13.0833,-62.2667,91.83,33.0,33.0,7.0,BR,1718658689.0
576,san antonio del estrecho,,,,,,,,
577,rukban,,,,,,,,
578,luderitz,-26.6481,15.1594,57.52,84.0,84.0,0.0,,1718658692.0
579,huarmey,-10.0681,-78.1522,68.67,75.0,75.0,0.0,PE,1718658693.0
580,santa cruz,-17.8,-63.1667,80.06,83.0,83.0,40.0,BO,1718658482.0
581,lobito,-12.3481,13.5456,69.53,86.0,86.0,8.0,AO,1718658696.0
582,gobabis,-22.45,18.9667,53.02,23.0,23.0,2.0,,1718658697.0
583,kirensk,57.7853,108.1119,47.59,77.0,77.0,8.0,RU,1718658698.0
584,mary,37.0,62.5,86.67,21.0,21.0,0.0,TM,1718658699.0
585,ust-tsilma,65.441,52.1498,49.91,81.0,81.0,0.0,RU,1718658700.0
586,rute,37.3269,-4.3683,72.72,35.0,35.0,3.0,ES,1718658701.0
587,faya-largeau,17.9257,19.1043,96.15,11.0,11.0,5.0,TD,1718658702.0
588,psyzh,44.2331,42.0183,64.89,93.0,93.0,0.0,RU,1718658704.0
589,maxixe,-23.8597,35.3472,65.48,80.0,80.0,41.0,MZ,1718658705.0
590,tannum sands,-23.9504,151.3693,45.75,61.0,61.0,0.0,AU,1718658706.0
591,dickinson,29.4608,-95.0513,92.12,75.0,75.0,40.0,US,1718658642.0
592,kikwit,-5.041,18.8162,73.87,36.0,36.0,100.0,CD,1718658708.0
593,piti village,13.4626,144.6933,84.31,84.0,84.0,40.0,GU,1718658709.0
594,zhanaozen,43.3,52.8,88.34,24.0,24.0,24.0,KZ,1718658710.0
595,kandi,11.1342,2.9386,82.08,65.0,65.0,40.0,BJ,1718658711.0
596,goz beida,13.95,20.55,90.59,33.0,33.0,80.0,TD,1718658713.0
